{"generatedAt":"2026-07-17","lines":{"TE":[{"code":"TE1","name":"WOODLANDS NORTH","lat":1.44829245259621,"lng":103.785692682441},{"code":"TE2","name":"WOODLANDS","lat":1.43605761708128,"lng":103.787938777173},{"code":"TE3","name":"WOODLANDS SOUTH","lat":1.42739605281442,"lng":103.79326432221},{"code":"TE4","name":"SPRINGLEAF","lat":1.39758106126824,"lng":103.817856949947},{"code":"TE5","name":"LENTOR","lat":1.38550657972169,"lng":103.835743809669},{"code":"TE6","name":"MAYFLOWER","lat":1.37146318831015,"lng":103.836567766945},{"code":"TE7","name":"BRIGHT HILL","lat":1.36328318545185,"lng":103.832893619992},{"code":"TE8","name":"UPPER THOMSON","lat":1.35441643365401,"lng":103.832898468504},{"code":"TE9","name":"CALDECOTT","lat":1.33724561271722,"lng":103.840161782075},{"code":"TE10","name":"MOUNT PLEASANT","lat":1.32856455460666,"lng":103.83518858199},{"code":"TE11","name":"STEVENS","lat":1.31933437435349,"lng":103.825566965234},{"code":"TE12","name":"NAPIER","lat":1.30678223364785,"lng":103.818956796815},{"code":"TE13","name":"ORCHARD BOULEVARD","lat":1.30242224836722,"lng":103.823868523249},{"code":"TE14","name":"ORCHARD","lat":1.30304426265194,"lng":103.831375000068},{"code":"TE15","name":"GREAT WORLD","lat":1.29394816169384,"lng":103.833720837731},{"code":"TE16","name":"HAVELOCK","lat":1.28850523975311,"lng":103.833585838226},{"code":"TE17","name":"OUTRAM PARK","lat":1.28132964411173,"lng":103.839137557749},{"code":"TE18","name":"MAXWELL","lat":1.28053329842878,"lng":103.843883670633},{"code":"TE19","name":"SHENTON WAY","lat":1.2777168283425,"lng":103.850367596067},{"code":"TE20","name":"MARINA BAY","lat":1.27474173226842,"lng":103.855309167928},{"code":"TE21","name":"MARINA SOUTH","lat":1.27455475919137,"lng":103.863574321728},{"code":"TE22","name":"GARDENS BY THE BAY","lat":1.27848725876303,"lng":103.867454664421},{"code":"TE23","name":"TANJONG RHU","lat":1.29726507940646,"lng":103.873453254621},{"code":"TE24","name":"KATONG PARK","lat":1.29783147778951,"lng":103.886178949925},{"code":"TE25","name":"TANJONG KATONG","lat":1.29931925769899,"lng":103.897368742078},{"code":"TE26","name":"MARINE PARADE","lat":1.30261163483383,"lng":103.904983086812},{"code":"TE27","name":"MARINE TERRACE","lat":1.30666510344814,"lng":103.9151067005},{"code":"TE28","name":"SIGLAP","lat":1.31000869432289,"lng":103.930025826708},{"code":"TE29","name":"BAYSHORE","lat":1.31312248291264,"lng":103.942309776767},{"code":"TE30","name":"BEDOK SOUTH","lat":1.31668400658419,"lng":103.94931120983},{"code":"TE31","name":"SUNGEI BEDOK","lat":1.32040148729112,"lng":103.957183823478}],"EW":[{"code":"EW1","name":"PASIR RIS","lat":1.37304331635804,"lng":103.949284527763},{"code":"EW2","name":"TAMPINES","lat":1.35330167637376,"lng":103.945144586749},{"code":"EW3","name":"SIMEI","lat":1.34319707851829,"lng":103.953377214378},{"code":"EW4","name":"TANAH MERAH","lat":1.32718729074675,"lng":103.946348600798},{"code":"EW5","name":"BEDOK","lat":1.32397996868158,"lng":103.929984495066},{"code":"EW6","name":"KEMBANGAN","lat":1.3210381335934,"lng":103.912947930851},{"code":"EW7","name":"EUNOS","lat":1.31978354916088,"lng":103.903225807255},{"code":"EW8","name":"PAYA LEBAR","lat":1.31811149224527,"lng":103.893060771576},{"code":"EW9","name":"ALJUNIED","lat":1.3164326118157,"lng":103.882906044385},{"code":"EW10","name":"KALLANG","lat":1.31148890998818,"lng":103.871386541754},{"code":"EW11","name":"LAVENDER","lat":1.30737781747063,"lng":103.862767633888},{"code":"EW12","name":"BUGIS","lat":1.30046508509717,"lng":103.855706730933},{"code":"EW13","name":"CITY HALL","lat":1.29293672227779,"lng":103.852585580366},{"code":"EW14","name":"RAFFLES PLACE","lat":1.28412561043658,"lng":103.851461712342},{"code":"EW15","name":"TANJONG PAGAR","lat":1.27656131737246,"lng":103.845725186759},{"code":"EW16","name":"OUTRAM PARK","lat":1.28140504772213,"lng":103.839130979249},{"code":"EW17","name":"TIONG BAHRU","lat":1.28610253615775,"lng":103.827445112419},{"code":"EW18","name":"REDHILL","lat":1.28963453412887,"lng":103.81674097205},{"code":"EW19","name":"QUEENSTOWN","lat":1.29455085184931,"lng":103.806077155982},{"code":"EW20","name":"COMMONWEALTH","lat":1.30250199924325,"lng":103.798228523336},{"code":"EW21","name":"BUONA VISTA","lat":1.3072237082044,"lng":103.790253514502},{"code":"EW22","name":"DOVER","lat":1.31140529320963,"lng":103.778637841909},{"code":"EW23","name":"CLEMENTI","lat":1.31511625277378,"lng":103.765191452888},{"code":"EW24","name":"JURONG EAST","lat":1.3330275154394,"lng":103.742370487607},{"code":"EW25","name":"CHINESE GARDEN","lat":1.34235282081401,"lng":103.732596738363},{"code":"EW26","name":"LAKESIDE","lat":1.34425911493819,"lng":103.720949087456},{"code":"EW27","name":"BOON LAY","lat":1.33860405469845,"lng":103.706064622772},{"code":"EW28","name":"PIONEER","lat":1.33758701106708,"lng":103.697321608474},{"code":"EW29","name":"JOO KOON","lat":1.3277170408447,"lng":103.678374996165},{"code":"EW30","name":"GUL CIRCLE","lat":1.31947090075208,"lng":103.660530461345},{"code":"EW31","name":"TUAS CRESCENT","lat":1.32102695598684,"lng":103.649078235627},{"code":"EW32","name":"TUAS WEST ROAD","lat":1.32998504653102,"lng":103.639616648771},{"code":"EW33","name":"TUAS LINK","lat":1.34088242451105,"lng":103.636991425128}],"NS":[{"code":"NS1","name":"JURONG EAST","lat":1.3330275154394,"lng":103.742370487607},{"code":"NS2","name":"BUKIT BATOK","lat":1.34903331201636,"lng":103.749566478309},{"code":"NS3","name":"BUKIT GOMBAK","lat":1.35861159094192,"lng":103.751790910733},{"code":"NS4","name":"CHOA CHU KANG","lat":1.38536316540225,"lng":103.744370779756},{"code":"NS5","name":"YEW TEE","lat":1.39753506936297,"lng":103.747405150236},{"code":"NS7","name":"KRANJI","lat":1.42508698073648,"lng":103.762137459497},{"code":"NS8","name":"MARSILING","lat":1.43252114855026,"lng":103.774074641403},{"code":"NS9","name":"WOODLANDS","lat":1.43681962961519,"lng":103.786066799253},{"code":"NS10","name":"ADMIRALTY","lat":1.44058856161847,"lng":103.800990519771},{"code":"NS11","name":"SEMBAWANG","lat":1.44905082158502,"lng":103.820046140211},{"code":"NS12","name":"CANBERRA","lat":1.44307664075699,"lng":103.829702590959},{"code":"NS13","name":"YISHUN","lat":1.42944308477331,"lng":103.835005047246},{"code":"NS14","name":"KHATIB","lat":1.41738337009565,"lng":103.832979908243},{"code":"NS15","name":"YIO CHU KANG","lat":1.38175587099132,"lng":103.84494727118},{"code":"NS16","name":"ANG MO KIO","lat":1.36993284962262,"lng":103.84955809232},{"code":"NS17","name":"BISHAN","lat":1.35083898784737,"lng":103.848143964542},{"code":"NS18","name":"BRADDELL","lat":1.3404690010277,"lng":103.846799083148},{"code":"NS19","name":"TOA PAYOH","lat":1.33262928096888,"lng":103.847502198048},{"code":"NS20","name":"NOVENA","lat":1.32044079120154,"lng":103.843825618748},{"code":"NS21","name":"NEWTON","lat":1.3123189224097,"lng":103.837984594021},{"code":"NS22","name":"ORCHARD","lat":1.30398013681715,"lng":103.832245244375},{"code":"NS23","name":"SOMERSET","lat":1.30026416739006,"lng":103.839085753124},{"code":"NS24","name":"DHOBY GHAUT","lat":1.29870132536119,"lng":103.846113677951},{"code":"NS25","name":"CITY HALL","lat":1.29293672227779,"lng":103.852585580366},{"code":"NS26","name":"RAFFLES PLACE","lat":1.28412561043658,"lng":103.851461712342},{"code":"NS27","name":"MARINA BAY","lat":1.276410298755,"lng":103.854595522263},{"code":"NS28","name":"MARINA SOUTH PIER","lat":1.27102703612006,"lng":103.862447515736}],"CG":[{"code":"CG1","name":"EXPO","lat":1.33454977824817,"lng":103.961548211018},{"code":"CG2","name":"CHANGI AIRPORT","lat":1.35747897447692,"lng":103.98788356959}],"CC":[{"code":"CC1","name":"DHOBY GHAUT","lat":1.29891164362677,"lng":103.84629250696},{"code":"CC2","name":"BRAS BASAH","lat":1.29686168649656,"lng":103.850667371637},{"code":"CC3","name":"ESPLANADE","lat":1.2936577245386,"lng":103.855081226245},{"code":"CC4","name":"PROMENADE","lat":1.29399798636232,"lng":103.860350000188},{"code":"CC5","name":"NICOLL HIGHWAY","lat":1.29976684675139,"lng":103.86363696572},{"code":"CC6","name":"STADIUM","lat":1.3028124684707,"lng":103.875337711089},{"code":"CC7","name":"MOUNTBATTEN","lat":1.30620190525331,"lng":103.882528081052},{"code":"CC8","name":"DAKOTA","lat":1.30854798388121,"lng":103.889064718377},{"code":"CC9","name":"PAYA LEBAR","lat":1.3172473854035,"lng":103.892260753884},{"code":"CC10","name":"MACPHERSON","lat":1.32607760171665,"lng":103.890391305725},{"code":"CC11","name":"TAI SENG","lat":1.33514150139202,"lng":103.888389300191},{"code":"CC12","name":"BARTLEY","lat":1.34250117805245,"lng":103.880177899184},{"code":"CC13","name":"SERANGOON","lat":1.35063361526525,"lng":103.872771660431},{"code":"CC14","name":"LORONG CHUAN","lat":1.35161217074555,"lng":103.864151938651},{"code":"CC15","name":"BISHAN","lat":1.35131580146658,"lng":103.84914026532},{"code":"CC16","name":"MARYMOUNT","lat":1.348707263451,"lng":103.839423132332},{"code":"CC17","name":"CALDECOTT","lat":1.33767337407828,"lng":103.839530785576},{"code":"CC18","name":"BUKIT BROWN","lat":1.33372888295973,"lng":103.830689549849},{"code":"CC19","name":"BOTANIC GARDENS","lat":1.32211373558877,"lng":103.814984510627},{"code":"CC20","name":"FARRER ROAD","lat":1.31743915158967,"lng":103.807379214161},{"code":"CC21","name":"HOLLAND VILLAGE","lat":1.31224029631595,"lng":103.796399122407},{"code":"CC22","name":"BUONA VISTA","lat":1.30663450405,"lng":103.790709404436},{"code":"CC23","name":"ONE-NORTH","lat":1.29975987493555,"lng":103.78745750525},{"code":"CC24","name":"KENT RIDGE","lat":1.29353349887123,"lng":103.784572738173},{"code":"CC25","name":"HAW PAR VILLA","lat":1.28257135772488,"lng":103.781752725064},{"code":"CC26","name":"PASIR PANJANG","lat":1.27621352233766,"lng":103.791350313288},{"code":"CC27","name":"LABRADOR PARK","lat":1.27225417749656,"lng":103.802631578766},{"code":"CC28","name":"TELOK BLANGAH","lat":1.27070647717762,"lng":103.809761611219},{"code":"CC29","name":"HARBOURFRONT","lat":1.26538938374901,"lng":103.821530157095},{"code":"CC30","name":"KEPPEL","lat":1.26977220124441,"lng":103.830031459524},{"code":"CC31","name":"CANTONMENT","lat":1.27287214563203,"lng":103.837062313764},{"code":"CC32","name":"PRINCE EDWARD ROAD","lat":1.27315693636085,"lng":103.847097123745},{"code":"CC33","name":"MARINA BAY","lat":1.27625146423743,"lng":103.855447156279},{"code":"CC34","name":"BAYFRONT","lat":1.28187378879209,"lng":103.859079764874}],"DT":[{"code":"DT1","name":"BUKIT PANJANG","lat":1.37900211641036,"lng":103.761535114929},{"code":"DT2","name":"CASHEW","lat":1.36981544925552,"lng":103.76443921414},{"code":"DT3","name":"HILLVIEW","lat":1.36234486803558,"lng":103.767418254007},{"code":"DT4","name":"HUME","lat":1.3545953239503,"lng":103.769118851887},{"code":"DT5","name":"BEAUTY WORLD","lat":1.34122317558549,"lng":103.775794285083},{"code":"DT6","name":"KING ALBERT PARK","lat":1.33566161262214,"lng":103.783399113441},{"code":"DT7","name":"SIXTH AVENUE","lat":1.33085764536226,"lng":103.796906838288},{"code":"DT8","name":"TAN KAH KEE","lat":1.32555623519898,"lng":103.807760304729},{"code":"DT9","name":"BOTANIC GARDENS","lat":1.32248807089544,"lng":103.816013994259},{"code":"DT10","name":"STEVENS","lat":1.32006555750626,"lng":103.826024401924},{"code":"DT11","name":"NEWTON","lat":1.31399286264569,"lng":103.837714613091},{"code":"DT12","name":"LITTLE INDIA","lat":1.30701826765224,"lng":103.848660935092},{"code":"DT13","name":"ROCHOR","lat":1.30385218527656,"lng":103.852769428884},{"code":"DT14","name":"BUGIS","lat":1.29931350344582,"lng":103.857125959023},{"code":"DT15","name":"PROMENADE","lat":1.29289175383295,"lng":103.860891800025},{"code":"DT16","name":"BAYFRONT","lat":1.28187378879209,"lng":103.859079764874},{"code":"DT17","name":"DOWNTOWN","lat":1.27944638178916,"lng":103.852840829581},{"code":"DT18","name":"TELOK AYER","lat":1.28206894769394,"lng":103.848648781083},{"code":"DT19","name":"CHINATOWN","lat":1.28422391919085,"lng":103.845143798953},{"code":"DT20","name":"FORT CANNING","lat":1.29248194822996,"lng":103.844331362465},{"code":"DT21","name":"BENCOOLEN","lat":1.29891843369422,"lng":103.850353762717},{"code":"DT22","name":"JALAN BESAR","lat":1.3051713878069,"lng":103.855295713435},{"code":"DT23","name":"BENDEMEER","lat":1.31367252847691,"lng":103.862977620945},{"code":"DT24","name":"GEYLANG BAHRU","lat":1.32130110228321,"lng":103.871622627142},{"code":"DT25","name":"MATTAR","lat":1.32687671501334,"lng":103.883247509542},{"code":"DT26","name":"MACPHERSON","lat":1.32615024457361,"lng":103.889298600376},{"code":"DT27","name":"UBI","lat":1.32997425973974,"lng":103.899226655439},{"code":"DT28","name":"KAKI BUKIT","lat":1.33496735995428,"lng":103.908459338046},{"code":"DT29","name":"BEDOK NORTH","lat":1.33474211664091,"lng":103.91797832995},{"code":"DT30","name":"BEDOK RESERVOIR","lat":1.33660782955099,"lng":103.932234623286},{"code":"DT31","name":"TAMPINES WEST","lat":1.34551530560119,"lng":103.938436971222},{"code":"DT32","name":"TAMPINES","lat":1.35515041120473,"lng":103.943009883131},{"code":"DT33","name":"TAMPINES EAST","lat":1.35619148271544,"lng":103.9546344625},{"code":"DT34","name":"UPPER CHANGI","lat":1.34173977444995,"lng":103.961472788634},{"code":"DT35","name":"EXPO","lat":1.33538252614956,"lng":103.962374747451},{"code":"DT36","name":"XILIN","lat":1.32890694938858,"lng":103.964902569595},{"code":"DT37","name":"SUNGEI BEDOK","lat":1.32040148729112,"lng":103.957183823478}],"NE":[{"code":"NE1","name":"HARBOURFRONT","lat":1.26538938374901,"lng":103.821530157095},{"code":"NE3","name":"OUTRAM PARK","lat":1.27972059383553,"lng":103.839439862425},{"code":"NE4","name":"CHINATOWN","lat":1.28435959278583,"lng":103.843426681863},{"code":"NE5","name":"CLARKE QUAY","lat":1.28838602407588,"lng":103.846555209694},{"code":"NE6","name":"DHOBY GHAUT","lat":1.29970458121203,"lng":103.845488542541},{"code":"NE7","name":"LITTLE INDIA","lat":1.30680019696174,"lng":103.849647059738},{"code":"NE8","name":"FARRER PARK","lat":1.31190557325774,"lng":103.853477716509},{"code":"NE9","name":"BOON KENG","lat":1.31933570922514,"lng":103.861569454156},{"code":"NE10","name":"POTONG PASIR","lat":1.33137949021368,"lng":103.869055656782},{"code":"NE11","name":"WOODLEIGH","lat":1.33919004519388,"lng":103.87081830915},{"code":"NE12","name":"SERANGOON","lat":1.34970788089564,"lng":103.873574849884},{"code":"NE13","name":"KOVAN","lat":1.36017917065237,"lng":103.885064856353},{"code":"NE14","name":"HOUGANG","lat":1.37129226620797,"lng":103.892380513029},{"code":"NE15","name":"BUANGKOK","lat":1.38287001971672,"lng":103.893122569706},{"code":"NE16","name":"SENGKANG","lat":1.39169462601522,"lng":103.895484694279},{"code":"NE17","name":"PUNGGOL","lat":1.40454653668991,"lng":103.902072622229},{"code":"NE18","name":"PUNGGOL COAST","lat":1.41492733388605,"lng":103.910166388177}],"BP":[{"code":"BP1","name":"CHOA CHU KANG","lat":1.38475541089131,"lng":103.74453769781},{"code":"BP2","name":"SOUTH VIEW","lat":1.38029828742399,"lng":103.745291799824},{"code":"BP3","name":"KEAT HONG","lat":1.3786032506373,"lng":103.749055668925},{"code":"BP4","name":"TECK WHYE","lat":1.37668467920808,"lng":103.753712232337},{"code":"BP5","name":"PHOENIX","lat":1.37861545104083,"lng":103.757995558346},{"code":"BP6","name":"BUKIT PANJANG","lat":1.37792694616982,"lng":103.763102931112},{"code":"BP7","name":"PETIR","lat":1.37777204259082,"lng":103.766645782497},{"code":"BP8","name":"PENDING","lat":1.37613574334988,"lng":103.771261175571},{"code":"BP9","name":"BANGKIT","lat":1.38002223010088,"lng":103.772647370452},{"code":"BP10","name":"FAJAR","lat":1.38457317668026,"lng":103.770887223018},{"code":"BP11","name":"SEGAR","lat":1.38778508663361,"lng":103.769599685249},{"code":"BP12","name":"JELAPANG","lat":1.38673926997961,"lng":103.76453408646},{"code":"BP13","name":"SENJA","lat":1.38272547134453,"lng":103.76234425472}],"SW":[{"code":"SW1","name":"CHENG LIM","lat":1.39627763344324,"lng":103.893797181731},{"code":"SW2","name":"FARMWAY","lat":1.39717019591821,"lng":103.889304824196},{"code":"SW3","name":"KUPANG","lat":1.39821283031379,"lng":103.881256222255},{"code":"SW4","name":"THANGGAM","lat":1.39731815581938,"lng":103.875635154729},{"code":"SW5","name":"FERNVALE","lat":1.39188589234766,"lng":103.87630862552},{"code":"SW6","name":"LAYAR","lat":1.39207983659997,"lng":103.880029600546},{"code":"SW7","name":"TONGKANG","lat":1.38934794658941,"lng":103.885844150116},{"code":"SW8","name":"RENJONG","lat":1.38670058991904,"lng":103.89062131608}],"PE":[{"code":"PE1","name":"COVE","lat":1.39928198837342,"lng":103.905961941214},{"code":"PE2","name":"MERIDIAN","lat":1.3969120498774,"lng":103.908950224489},{"code":"PE3","name":"CORAL EDGE","lat":1.39390922863313,"lng":103.912580845515},{"code":"PE4","name":"RIVIERA","lat":1.39451978540251,"lng":103.916169381157},{"code":"PE5","name":"KADALOOR","lat":1.39950910636258,"lng":103.916574974234},{"code":"PE6","name":"OASIS","lat":1.40228667971123,"lng":103.912727352412},{"code":"PE7","name":"DAMAI","lat":1.40523483636957,"lng":103.908603542566}],"SE":[{"code":"SE1","name":"COMPASSVALE","lat":1.39449304450373,"lng":103.900492450944},{"code":"SE2","name":"RUMBIA","lat":1.39146849534132,"lng":103.90597359341},{"code":"SE3","name":"BAKAU","lat":1.38799431054768,"lng":103.905415300171},{"code":"SE4","name":"KANGKAR","lat":1.38395911688913,"lng":103.90222537044},{"code":"SE5","name":"RANGGUNG","lat":1.38423355918277,"lng":103.897194667804}],"PW":[{"code":"PW1","name":"SAM KEE","lat":1.40961268528804,"lng":103.904831550608},{"code":"PW2","name":"TECK LEE","lat":1.4127708937463,"lng":103.906577622768},{"code":"PW3","name":"PUNGGOL POINT","lat":1.41684852031206,"lng":103.906650789313},{"code":"PW4","name":"SAMUDERA","lat":1.41590172160383,"lng":103.902156317163},{"code":"PW5","name":"NIBONG","lat":1.41185447744238,"lng":103.900339452055},{"code":"PW6","name":"SUMANG","lat":1.40845241943079,"lng":103.898558450395},{"code":"PW7","name":"SOO TECK","lat":1.40532331860455,"lng":103.897290522033}]}}